
{
    "status":"OK",
    "implants":[
       {
          "coordinates":{
             "longitudine":"43.820718",
             "latitudine":"10.506696"
          },
          "id":"1",
          "type":null,
          "name":"Mortaiolo",
          "state":"0",
          "notification":"true",
          "pressione":"403956.00",
          "portata":"80000",
          "isOpenPopup":null,
          "time":"weekly",
          "cabine":[
             {
                "id":"1",
                "name":"CAB 808/A",
                "pressioneIN":"303999.00",
                "pressioneOUT":"299989.90",
                "portata":"40000",
                "limite":"40000",
                "limitConsigliato":"45000",
                "limitDate":"1603280491"
             }
          ]
       },
       {
          "coordinates":{
             "longitudine":"43.820718",
             "latitudine":"10.506696"
          },
          "id":"1",
          "type":null,
          "name":"Livorno",
          "state":"0",
          "notification":"true",
          "pressione":"403956.00",
          "portata":"80000",
          "isOpenPopup":null,
          "time":"weekly",
          "cabine":[
             {
                "id":"1",
                "name":"CAB 808/A",
                "pressioneIN":"303999.00",
                "pressioneOUT":"299989.90",
                "portata":"40000",
                "limite":"40000",
                "limitConsigliato":"45000",
                "limitDate":"1603280491"
             }
          ]
       }
    ],
    "centers":[
       {
          "coordinates":[
             43.4748420000001,
             11.8503860000001
          ],
          "name":"Arezzo",
          "isOpenPopup":true,
          "id":1
       },
       {
          "coordinates":[
             43.7628,
             11.1490610000001
          ],
          "name":"Scandicci",
          "isOpenPopup":true,
          "id":2
       },
       {
          "coordinates":[
             43.767947,
             10.3427530000001
          ],
          "name":"Pisa",
          "isOpenPopup":true,
          "id":3
       },
       {
          "coordinates":[
             44.866060297,
             10.0812095700001
          ],
          "name":"Fidenza",
          "isOpenPopup":true,
          "id":4
       }
    ],
    "pipelines":[
       {
          "coordinates":[
             43.59678299028642,
             10.358599002387683
          ],
          "name":"Livorno - Piombino",
          "pressione":299989.90,
          "portata":235849,
          "isOpenPopup":true,
          "id":1,
          "direction":"left-right"
       },
       {
          "coordinates":[
             43.6546558526095,
             10.81455907589848
          ],
          "name":"Livorno - Piombino",
          "pressione":299989.90,
          "portata":235849,
          "isOpenPopup":true,
          "id":2,
          "direction":"left-right"
       },
       {
          "coordinates":[
             43.36194102564605,
             11.768339761450731
          ],
          "name":"Livorno - Piombino",
          "pressione":299989.90,
          "portata":235849,
          "isOpenPopup":true,
          "id":3,
          "direction":"down"
       },
       {
          "coordinates":[
             43.62349439138182,
             11.603682893645269
          ],
          "name":"Livorno - Piombino",
          "pressione":299989.90,
          "portata":235849.50,
          "isOpenPopup":true,
          "id":4,
          "direction":"top"
       }
    ]
 }